City_ID,City,Lat,Lng,Max Temp,Humidity,Cloudiness,Wind Speed,Country,Date
0,yellowknife,62.456,-114.3525,14.29,62,75,3.09,CA,1718237548
1,puerto natales,-51.7236,-72.4875,1.37,79,73,5.05,CL,1718237549
2,adamstown,-25.066,-130.1015,20.47,72,69,7.0,PN,1718237550
3,ilulissat,69.2167,-51.1,0.11,98,100,4.69,GL,1718237551
4,ornskoldsvik,63.2909,18.7153,7.53,93,23,2.06,SE,1718237552
5,waitangi,-43.9535,-176.5597,9.9,95,59,2.24,NZ,1718237554
6,port-aux-francais,-49.35,70.2167,2.35,74,91,15.15,TF,1718237555
7,lebu,-37.6167,-73.65,13.19,90,100,10.35,CL,1718237556
8,timbuktu,16.7735,-3.0074,33.99,28,55,3.81,ML,1718237557
9,iskateley,67.6803,53.1512,13.34,74,78,3.13,RU,1718237558
10,luena,-11.7833,19.9167,10.05,57,4,1.91,AO,1718237559
11,vorgashor,67.5833,63.95,7.67,99,100,1.58,RU,1718237560
12,hawaiian paradise park,19.5933,-154.9731,27.8,73,20,5.14,US,1718237561
13,evanston,42.0411,-87.6901,32.28,36,100,2.57,US,1718237326
14,qaqortoq,60.7167,-46.0333,4.52,65,0,13.65,GL,1718237564
15,grytviken,-54.2811,-36.5092,-6.0,63,31,3.54,GS,1718237565
16,colonia,50.9333,6.95,10.1,82,0,0.51,DE,1718237566
17,tralee,52.2704,-9.7026,10.53,87,100,2.74,IE,1718237567
18,magadan,59.5667,150.8,15.85,71,68,1.6,RU,1718237568
19,iqaluit,63.7506,-68.5145,1.85,86,100,3.58,CA,1718237569
20,edinburgh of the seven seas,-37.0676,-12.3116,12.78,56,25,11.51,SH,1718237570
21,margate,51.3813,1.3862,10.94,80,76,2.24,GB,1718237496
22,avarua,-21.2078,-159.775,25.03,65,40,5.66,CK,1718237573
23,porto empedocle,37.2934,13.5264,22.51,76,92,2.09,IT,1718237574
24,port moresby,-9.4431,147.1797,26.34,85,98,7.01,PG,1718237523
25,shchigry,51.8755,36.9043,17.9,97,47,2.82,RU,1718237410
26,guerrero negro,27.9769,-114.0611,20.49,66,0,8.82,MX,1718237578
27,bethel,41.3712,-73.414,21.63,70,67,1.84,US,1718237580
28,callao,-12.0667,-77.15,19.29,88,100,4.12,PE,1718237315
29,dalandzadgad,43.5708,104.425,14.74,51,17,5.27,MN,1718237582
30,mount isa,-20.7333,139.5,21.87,33,1,3.6,AU,1718237584
31,khromtau,50.2503,58.4347,19.58,43,6,2.87,KZ,1718237585
32,xintai,35.9006,117.7519,29.58,47,3,3.41,CN,1718237382
33,vilyuysk,63.7553,121.6247,18.89,36,80,1.79,RU,1718237587
34,kodiak,57.79,-152.4072,10.73,71,100,5.14,US,1718237588
35,afaahiti,-17.75,-149.2833,26.93,75,66,7.59,PF,1718237590
36,tazacorte,28.629,-17.9293,20.54,79,100,7.2,ES,1718237591
37,anadyr,64.75,177.4833,10.28,71,40,4.0,RU,1718237592
38,katsuren-haebaru,26.3369,127.8719,27.21,97,100,8.75,JP,1718237593
39,geraldton,-28.7667,114.6,12.23,94,1,5.14,AU,1718237594
40,papatowai,-46.5619,169.4708,7.48,71,100,2.03,NZ,1718237595
41,codrington,-38.2667,141.9667,10.7,69,100,1.87,AU,1718237596
42,crane,31.3974,-102.3501,34.83,27,0,3.29,US,1718237597
43,quellon,-43.1167,-73.6167,10.69,96,100,5.72,CL,1718237598
44,yel'nya,54.5786,33.1837,13.87,97,100,4.94,RU,1718237600
45,olonkinbyen,70.9221,-8.7187,0.84,95,100,5.96,SJ,1718237601
46,port saint john's,-31.6229,29.5448,17.36,72,26,2.09,ZA,1718237602
47,gadzhiyevo,69.2551,33.3362,5.2,82,100,4.3,RU,1718237603
48,margaret river,-33.95,115.0667,11.31,78,15,1.22,AU,1718237604
49,kibre mengist,5.8833,38.9833,14.87,91,100,0.49,ET,1718237605
50,flin flon,54.7682,-101.865,15.8,67,95,2.69,CA,1718237606
51,vernon,50.2581,-119.2691,25.16,24,87,1.03,CA,1718237076
52,eenhana,-17.4667,16.3333,11.31,36,17,3.33,NA,1718237611
53,tazovsky,67.4667,78.7,8.62,98,98,2.31,RU,1718237613
54,mikun',62.3547,50.0771,14.82,97,29,1.54,RU,1718237615
55,hasaki,35.7333,140.8333,22.94,75,100,1.65,JP,1718237616
56,ijero-ekiti,7.8139,5.0742,23.0,92,100,1.64,NG,1718237617
57,lihue,21.9789,-159.3672,30.58,74,75,6.69,US,1718237618
58,muroto-misakicho,33.2833,134.15,22.68,80,75,1.63,JP,1718237620
59,bodo,67.28,14.405,9.41,97,20,1.54,NO,1718237621
60,och'amch'ire,42.7123,41.4686,19.66,74,0,1.69,GE,1718237622
61,argostolion,38.1811,20.489,26.27,57,83,2.87,GR,1718237623
62,talnakh,69.4865,88.3972,8.45,56,74,2.42,RU,1718237425
63,tofol,5.3248,163.0078,30.88,70,75,3.09,FM,1718237625
64,college,64.8569,-147.8028,15.81,84,75,6.69,US,1718237626
65,pariaman,-0.619,100.12,25.03,89,86,1.36,ID,1718237627
66,nelson bay,-32.7167,152.15,14.49,68,100,1.34,AU,1718237629
67,alofi,-19.0595,-169.9187,25.94,89,40,4.12,NU,1718237630
68,fortuna,40.5982,-124.1573,17.74,70,0,7.72,US,1718237631
69,hadibu,12.65,54.0333,27.45,76,21,6.74,YE,1718237632
70,al jawf,29.5,38.75,27.47,14,0,4.19,SA,1718237633
71,valea stanciului,43.9833,23.8667,19.73,96,20,2.17,RO,1718237634
72,blackmans bay,-43.0167,147.3167,9.29,77,70,0.89,AU,1718237635
73,arba minch,6.0333,37.55,18.8,84,98,0.98,ET,1718237636
74,oranjemund,-28.55,16.4333,13.15,76,0,2.22,NA,1718237638
75,dunedin,-45.8742,170.5036,8.78,81,100,4.02,NZ,1718237639
76,puerto ayora,-0.7393,-90.3518,22.53,92,54,0.89,EC,1718237640
77,bilibino,68.0546,166.4372,15.83,42,1,3.12,RU,1718237413
78,myeik,12.4333,98.6,27.16,86,99,3.48,MM,1718237642
79,tiksi,71.6872,128.8694,6.85,65,88,2.63,RU,1718237643
80,kingston,17.997,-76.7936,28.98,81,66,2.76,JM,1718237411
81,choibalsan,48.0667,114.5,14.79,57,20,6.87,MN,1718237646
82,nar'yan-mar,67.6713,53.087,13.39,74,76,3.13,RU,1718237649
83,ust-nera,64.5667,143.2,17.26,38,93,0.12,RU,1718237352
84,west island,-12.1568,96.8225,25.99,94,100,4.12,CC,1718237653
85,huaraz,-9.5333,-77.5333,13.83,75,83,0.77,PE,1718237390
86,hamilton,39.1834,-84.5333,27.05,44,0,3.09,US,1718237185
87,luwuk,-0.9516,122.7875,24.78,87,100,2.69,ID,1718237657
88,korla,41.7597,86.1469,23.42,42,53,5.33,CN,1718237659
89,chul'man,56.8479,124.9104,18.49,45,29,0.89,RU,1718237577
90,pereval's'k,48.4378,38.8438,17.37,91,59,3.89,UA,1718237661
91,zhangatas,43.5667,69.75,17.18,48,0,3.65,KZ,1718237662
92,machhiwara,30.9147,76.1983,32.23,16,0,1.61,IN,1718237663
93,sungai raya,0.7,108.9,26.37,91,100,2.14,ID,1718237665
94,georgetown,5.4112,100.3354,28.96,82,20,2.06,MY,1718237666
95,paros,37.0833,25.15,29.77,50,28,2.57,GR,1718237386
96,albany,42.6001,-73.9662,19.3,66,100,1.68,US,1718237572
97,vorkuta,67.5,64.0,7.84,99,100,0.89,RU,1718237669
98,wailua homesteads,22.0669,-159.378,30.24,79,75,6.69,US,1718237670
99,weno,7.4515,151.8468,25.97,94,100,0.0,FM,1718237671
100,abra pampa,-22.7205,-65.697,8.51,14,12,0.17,AR,1718237672
101,lupane,-18.9315,27.807,7.9,62,0,2.12,ZW,1718237674
102,jamestown,42.097,-79.2353,22.77,40,0,1.54,US,1718237588
103,andergrove,-21.0833,149.1833,22.49,50,0,7.32,AU,1718237676
104,vilyuchinsk,52.9306,158.4028,11.15,85,99,2.1,RU,1718237531
105,whitehorse,60.7161,-135.0538,18.43,22,20,3.09,CA,1718237678
106,kone,-21.0595,164.8658,22.84,58,51,2.93,NC,1718237679
107,atafu village,-8.5421,-172.5159,29.12,74,89,4.18,TK,1718237680
108,yacuiba,-22.038,-63.6797,26.23,57,21,5.64,BO,1718237570
109,charters towers,-20.1,146.2667,21.19,34,0,5.93,AU,1718237683
110,ushuaia,-54.8,-68.3,-2.75,97,85,1.47,AR,1718237474
111,yuzhno-kurilsk,44.0306,145.8556,12.43,99,99,1.6,RU,1718237685
112,enewetak,11.3474,162.3373,28.14,82,37,9.36,MH,1718237686
113,sao felix do xingu,-6.6447,-51.995,23.78,59,8,1.21,BR,1718237687
114,thompson,55.7435,-97.8558,18.09,45,75,4.63,CA,1718237688
115,port alfred,-33.5906,26.891,15.04,75,0,5.5,ZA,1718237689
116,kegeyli shahar,42.7767,59.6078,22.05,21,73,4.33,UZ,1718237690
117,longyearbyen,78.2186,15.6401,2.91,75,75,7.72,SJ,1718237691
118,san antonio de pale,-1.4014,5.6325,25.18,77,100,3.7,GQ,1718237693
119,kailua-kona,19.6406,-155.9956,27.98,90,40,4.12,US,1718237694
120,esfarayen,37.0765,57.5101,20.81,33,94,3.34,IR,1718237695
121,lukolela,-1.0605,17.1821,21.53,64,10,0.88,CD,1718237696
122,rosetta,31.4044,30.4164,24.71,78,0,3.7,EG,1718237697
123,levuka,50.1834,-105.4011,20.9,36,43,7.29,CA,1718237698
124,lyantor,61.6195,72.1555,17.2,91,95,5.17,RU,1718237411
125,port elizabeth,-33.918,25.5701,15.73,74,0,4.12,ZA,1718237700
126,ouarzazat,30.9189,-6.8934,25.16,29,40,4.63,MA,1718237702
127,letlhakeng,-24.0944,25.0298,10.57,38,2,1.89,BW,1718237703
128,ritchie,-29.038,24.6028,3.56,46,0,1.72,ZA,1718237704
129,hilo,19.7297,-155.09,31.27,75,20,5.14,US,1718237706
130,la quinta,33.6634,-116.31,41.98,14,0,1.54,US,1718237707
131,saint-philippe,-21.3585,55.7679,23.77,83,100,8.58,RE,1718237708
132,old shinyanga,-3.55,33.4,18.61,61,6,2.73,TZ,1718237709
133,hami,42.8,93.45,29.05,19,26,6.78,CN,1718237710
134,chonchi,-42.6128,-73.8092,10.62,94,100,3.87,CL,1718237711
135,tsiombe,-25.3,45.4833,19.05,93,34,1.24,MG,1718237712
136,punta arenas,-53.15,-70.9167,0.06,86,40,9.26,CL,1718237421
137,klaksvik,62.2266,-6.589,8.51,80,46,1.62,FO,1718237715
138,port lincoln,-34.7333,135.8667,13.8,83,100,4.64,AU,1718237716
139,mount gambier,-37.8333,140.7667,8.97,72,100,1.71,AU,1718237717
140,hammerfest,70.6634,23.6821,6.25,93,100,3.09,NO,1718237718
141,rawson,-43.3002,-65.1023,13.63,62,100,4.14,AR,1718237532
142,fale old settlement,-9.3852,-171.2468,28.87,75,65,4.64,TK,1718237721
143,itaituba,-4.2761,-55.9836,27.43,70,100,0.91,BR,1718237722
144,praia da vitoria,38.7333,-27.0667,22.14,78,75,3.21,PT,1718237724
145,formosa,-26.1775,-58.1781,23.31,73,0,0.89,AR,1718237726
146,pervari,37.9357,42.5493,21.79,47,0,2.54,TR,1718237730
147,minas de marcona,-15.2119,-75.1103,13.83,75,12,3.15,PE,1718237731
148,horta,38.5333,-28.6333,20.57,86,86,0.89,PT,1718237649
149,sitka,57.0531,-135.33,11.94,66,100,5.66,US,1718237733
150,hermanus,-34.4187,19.2345,13.87,82,0,1.82,ZA,1718237492
151,east london,-33.0153,27.9116,15.67,61,0,3.71,ZA,1718237735
152,pangai,-19.8,-174.35,28.06,83,75,6.17,TO,1718237736
153,acapulco de juarez,16.8634,-99.8901,29.9,70,100,3.09,MX,1718237526
154,invercargill,-46.4,168.35,6.68,91,100,2.05,NZ,1718237740
155,kyren,51.6828,102.1408,16.08,57,18,0.11,RU,1718237530
156,selfoss,63.9331,-20.9971,10.02,76,100,7.86,IS,1718237742
157,livermore,37.6819,-121.768,32.49,44,0,6.69,US,1718237745
158,broome,42.2506,-75.833,19.81,70,0,1.54,US,1718237746
159,zhangye,38.9342,100.4517,24.22,27,100,1.31,CN,1718237747
160,las varillas,-31.8721,-62.7195,19.62,72,88,3.38,AR,1718237748
161,smithers,54.7804,-127.1743,14.18,35,75,6.69,CA,1718237749
162,sabha,27.0377,14.4283,32.78,11,0,5.39,LY,1718237750
163,fort bragg,35.139,-79.006,28.91,59,75,2.57,US,1718237751
164,bechar,31.6167,-2.2167,28.18,23,0,6.69,DZ,1718237752
165,sakaiminato,35.55,133.2333,24.99,78,75,2.06,JP,1718237754
166,dhidhdhoo,6.8833,73.1,28.53,79,100,6.3,MV,1718237755
167,tolanaro,-25.0319,46.9987,19.04,94,75,5.14,MG,1718237756
168,new norfolk,-42.7826,147.0587,9.95,78,99,0.54,AU,1718237757
169,sinabang,2.4803,96.3801,26.62,82,100,1.5,ID,1718237758
170,kilju,40.9642,129.3278,24.51,58,32,1.93,KP,1718237759
171,dryden,49.7833,-92.7503,20.16,49,0,3.6,CA,1718237587
172,colby,39.3958,-101.0524,38.23,16,0,4.02,US,1718237761
173,remire-montjoly,4.9167,-52.2667,26.02,94,0,1.03,GF,1718237762
174,saipan,15.1355,145.701,31.39,74,40,5.14,MP,1718237764
175,ribeira grande,38.5167,-28.7,20.99,86,82,0.89,PT,1718237765
176,nuuk,64.1835,-51.7216,3.34,70,20,1.54,GL,1718237712
177,colac,-38.3333,143.5833,8.43,77,100,0.98,AU,1718237767
178,berriane,32.8265,3.7669,28.45,25,2,7.16,DZ,1718237768
179,old town,50.087,14.4202,13.67,74,0,2.57,CZ,1718237772
180,tobelo,1.7284,128.0095,27.51,80,100,2.26,ID,1718237773
181,petropavlovsk-kamchatsky,53.0452,158.6483,10.33,90,75,4.47,RU,1718237774
182,kinik,39.0872,27.3833,28.93,26,86,1.45,TR,1718237775
183,prabumulih,-3.45,104.25,23.9,97,98,0.53,ID,1718237776
184,malango,-2.9627,119.9001,22.16,85,84,0.61,ID,1718237777
185,strelka,58.0728,93.0344,19.47,62,86,0.62,RU,1718237778
186,turtas,58.9417,69.1325,17.62,98,100,3.26,RU,1718237779
187,goure,13.9835,10.2704,30.79,38,14,3.19,NE,1718237780
188,badger,64.8,-147.5333,15.76,84,75,6.69,US,1718237782
189,faya-largeau,17.9257,19.1043,33.56,14,0,2.66,TD,1718237784
190,kurchatov,51.6601,35.6521,18.23,97,57,2.36,RU,1718237785
191,suozhen,36.9539,118.1047,34.0,32,18,6.74,CN,1718237786
192,westport,41.1415,-73.3579,22.19,67,20,3.6,US,1718237519
193,hithadhoo,-0.6,73.0833,28.28,73,75,2.19,MV,1718237791
194,la gi,10.6667,107.7833,27.78,78,86,4.32,VN,1718237793
195,dongdu,35.85,117.7,29.85,46,3,3.57,CN,1718237794
196,baukau,51.5526,7.2042,11.14,85,95,1.31,DE,1718237795
197,cassia,-20.5831,-46.9219,15.79,47,0,0.8,BR,1718237796
198,ulladulla,-35.35,150.4667,11.99,59,74,4.23,AU,1718237797
199,urengoy,65.9667,78.3667,13.16,82,100,1.57,RU,1718237798
200,nykarleby,63.5228,22.5307,9.95,91,7,1.06,FI,1718237799
201,mmabatho,-25.85,25.6333,4.98,70,0,1.54,ZA,1718237800
202,taro,-8.3862,115.28,22.0,93,87,0.64,ID,1718237802
203,taulaga,-11.0553,-171.0883,28.92,76,88,4.3,AS,1718237804
204,mubende,0.5606,31.39,15.42,85,3,0.62,UG,1718237806
205,san patricio,28.017,-97.5169,32.13,51,47,6.36,US,1718237807
206,port augusta,-32.5,137.7667,15.63,65,100,2.03,AU,1718237808
207,stanley,54.868,-1.6985,5.44,94,0,2.06,GB,1718237685
208,dudinka,69.4058,86.1778,8.71,53,92,3.13,RU,1718237532
209,otofuke,42.9917,143.2003,23.53,70,100,0.43,JP,1718237811
210,labrador city,52.9463,-66.9114,20.66,50,75,3.09,CA,1718237713
211,keflavik,64.0049,-22.5624,10.95,87,100,11.83,IS,1718237814
212,vilhena,-12.7406,-60.1458,21.12,46,18,1.61,BR,1718237815
213,gordonvale,-17.0936,145.7842,28.28,77,34,1.92,AU,1718237816
214,saint-joseph,-21.3667,55.6167,23.21,80,100,8.12,RE,1718237817
215,port mathurin,-19.6833,63.4167,23.98,71,89,11.99,MU,1718237818
216,mwatate,-3.5029,38.3795,16.35,84,8,1.49,KE,1718237819
217,sao vicente,-23.9631,-46.3919,26.75,26,1,1.6,BR,1718237820
218,kokuy,52.2037,117.5529,15.08,75,100,2.22,RU,1718237530
219,isafjordur,66.0755,-23.124,8.44,75,91,1.73,IS,1718237823
220,kokopo,-4.352,152.2633,28.14,76,92,0.79,PG,1718237825
221,haenam,34.5711,126.5989,24.41,53,0,2.54,KR,1718237826
222,tanout,14.9709,8.8879,30.53,35,7,5.31,NE,1718237827
223,daru,-9.0763,143.2092,25.4,84,100,5.99,PG,1718237829
224,brechin,56.7299,-2.6573,8.86,95,87,1.69,GB,1718237830
225,aasiaat,68.7098,-52.8699,0.54,97,100,6.0,GL,1718237532
226,udachny,66.4167,112.4,23.58,31,45,4.43,RU,1718237832
227,st. john's,47.5649,-52.7093,13.97,89,100,8.75,CA,1718237833
228,mahibadhoo,3.7833,72.9667,28.7,74,95,4.64,MV,1718237834
229,rikaze,29.25,88.8833,12.78,59,90,2.12,CN,1718237835
230,villa gesell,-37.2639,-56.973,15.03,98,100,4.71,AR,1718237561
231,kashgar,39.4547,75.9797,24.56,23,20,4.0,CN,1718237837
232,malakal,9.5334,31.6605,25.03,82,66,0.74,SS,1718237839
233,mirnyy,62.5353,113.9611,19.02,50,35,2.24,RU,1718237570
234,seminole,28.7086,-81.2081,28.53,85,20,0.45,US,1718237640
235,chinacota,7.6073,-72.6011,22.74,90,81,2.14,CO,1718237842
236,celestun,20.8667,-90.4,29.46,78,100,4.53,MX,1718237843
237,sarupathar,26.1984,93.8094,25.63,93,81,1.53,IN,1718237844
238,lisala,2.15,21.5167,20.55,96,51,0.29,CD,1718237846
239,rio grande,-32.035,-52.0986,20.06,90,56,3.65,BR,1718237847
240,praya,14.9215,-23.5087,24.3,78,40,5.14,CV,1718237848
241,pinotepa nacional,16.3167,-98.0167,26.05,86,94,1.49,MX,1718237849
242,beyneu,45.3167,55.2,27.33,28,100,3.19,KZ,1718237850
243,ulsteinvik,62.3432,5.8487,10.42,80,100,1.79,NO,1718237851
244,bridgewater,44.3835,-64.5155,16.73,84,66,3.09,CA,1718237852
245,arraial do cabo,-22.9661,-42.0278,20.98,100,0,3.09,BR,1718237853
246,lasem,-6.6922,111.4527,25.16,86,100,1.83,ID,1718237854
247,okha,53.5739,142.9478,6.25,95,100,4.02,RU,1718237859
248,la passe,45.5549,-0.8967,13.88,84,0,2.72,FR,1718237860
249,upata,8.0086,-62.3989,23.25,94,87,2.01,VE,1718237862
250,pisco,-13.7,-76.2167,18.03,88,100,2.06,PE,1718237642
251,polyarnyy,69.1989,33.4478,5.22,82,100,4.18,RU,1718237864
252,zaozersk,69.4005,32.4476,4.98,81,100,3.72,RU,1718237865
253,sinop,41.7711,34.8709,20.36,65,4,2.46,TR,1718237866
254,kruisfontein,-34.0033,24.7314,10.49,76,0,3.18,ZA,1718237867
255,wamba,8.9333,8.6,24.37,80,41,0.69,NG,1718237868
256,gamay,12.3854,125.2979,29.71,71,68,1.98,PH,1718237869
257,haiku-pauwela,20.9219,-156.3051,29.57,71,40,10.8,US,1718237870
258,indi,17.1667,75.9667,24.04,83,97,6.75,IN,1718237872
259,villa ojo de agua,-29.5,-63.6938,21.19,61,9,4.09,AR,1718237873
260,portland,45.5234,-122.6762,24.81,38,20,6.17,US,1718237543
261,broken hill,-31.95,141.4333,11.51,57,100,2.16,AU,1718237875
262,saint-pierre,-21.3393,55.4781,23.82,73,100,3.6,RE,1718237876
263,arafat,21.3594,39.9664,33.81,18,25,2.19,SA,1718237877
264,juneau,58.3019,-134.4197,16.0,100,75,3.6,US,1718237878
265,egilsstadir,65.2653,-14.3948,8.95,71,0,5.66,IS,1718237879
266,nova sintra,14.8667,-24.7167,24.27,82,68,4.98,CV,1718237881
267,mankoeng,-23.9,29.8167,3.01,44,0,2.61,ZA,1718237882
268,la sarre,48.8002,-79.1996,18.54,71,77,5.92,CA,1718237883
269,coquimbo,-29.9533,-71.3436,15.85,74,75,3.09,CL,1718237706
270,noosa heads,-26.3833,153.15,18.52,56,0,6.48,AU,1718237885
271,harstad,68.799,16.5293,9.89,98,97,2.24,NO,1718237886
272,tsaratanana,-16.7833,47.65,18.99,86,32,1.59,MG,1718237887
273,kem',64.9555,34.5793,9.14,93,6,2.68,RU,1718237890
274,kirillov,59.863,38.3813,14.99,97,99,1.75,RU,1718237891
275,shahr-e babak,30.1165,55.1186,23.34,27,20,2.67,IR,1718237892
276,mananara,-16.1667,49.7667,21.0,89,88,1.51,MG,1718237893
277,city of balikpapan,-1.242,116.8942,25.97,100,75,2.57,ID,1718237894
278,utrik,11.2278,169.8474,27.99,81,25,9.89,MH,1718237895
279,brisas de zicatela,15.8369,-97.0419,29.24,74,96,3.87,MX,1718237896
280,malvan,16.0667,73.4667,27.69,76,82,2.3,IN,1718237897
281,zhob,31.3411,69.4481,25.2,15,3,2.41,PK,1718237899
282,severo-yeniseyskiy,60.3725,93.0408,13.65,77,94,0.45,RU,1718237900
283,thames,-37.1333,175.5333,15.2,65,95,1.91,NZ,1718237901
284,tanjung pandan,-2.75,107.65,26.43,85,56,0.97,ID,1718237902
285,palmer,42.1584,-72.3287,22.34,61,95,0.84,US,1718237815
286,ancud,-41.8697,-73.8203,11.08,89,100,8.68,CL,1718237745
287,harper,4.375,-7.7169,25.71,83,62,4.12,LR,1718237905
288,talavera,15.6167,120.9333,28.72,77,53,1.07,PH,1718237907
289,weyburn,49.6668,-103.8511,22.12,30,48,9.26,CA,1718237710
290,dolinsk,47.35,142.8,8.18,94,100,2.19,RU,1718237909
291,beau vallon,-20.4189,57.6953,24.56,83,75,8.75,MU,1718237910
292,kourou,5.1552,-52.6478,26.03,93,98,2.05,GF,1718237912
293,jakobstad,63.6749,22.7026,7.24,92,5,2.03,FI,1718237913
294,santa marta,11.2408,-74.199,29.35,83,100,3.79,CO,1718237490
295,bitkine,11.9801,18.2138,30.61,43,58,2.81,TD,1718237915
296,igarka,67.4667,86.5833,7.79,64,100,2.68,RU,1718237916
297,turek,52.0155,18.5005,13.0,63,79,3.08,PL,1718237917
298,aripuana,-9.1667,-60.6333,25.33,48,9,0.57,BR,1718237918
299,rio san juan,19.6439,-70.0763,26.82,88,71,5.84,DO,1718237919
300,mahalapye,-23.1041,26.8142,10.59,45,1,0.42,BW,1718237921
301,galliano,29.4422,-90.2992,30.0,70,0,0.0,US,1718237922
302,al kharijah,25.4514,30.5464,27.62,22,0,2.18,EG,1718237923
303,bamboo flat,11.7,92.7167,27.55,83,98,8.17,IN,1718237925
304,touros,-5.1989,-35.4608,25.36,80,99,5.76,BR,1718237926
305,reggane,26.7158,0.1714,36.0,13,9,1.66,DZ,1718237927
306,kismayo,-0.3582,42.5454,25.75,79,29,7.65,SO,1718237929
307,mazamari,-11.3258,-74.5308,25.48,69,92,0.49,PE,1718237930
308,ngurore,9.2833,12.2333,27.5,62,23,0.14,NG,1718237931
309,kolonia,50.9333,6.95,10.1,82,0,0.51,DE,1718237932
310,tabou,4.423,-7.3528,25.49,84,61,4.04,CI,1718237933
311,namibe,-15.1961,12.1522,19.09,76,56,0.39,AO,1718237934
312,ratnapura,6.6828,80.3992,24.41,97,100,0.83,LK,1718237935
313,doctor alberto oviedo mota,32.2275,-115.1697,46.11,7,0,9.19,MX,1718237936
314,kingscliff,-28.2667,153.5667,18.2,42,21,4.63,AU,1718237937
315,cururupu,-1.8283,-44.8683,23.34,93,41,0.58,BR,1718237939
316,mirny,62.5353,113.9611,19.02,50,35,2.24,RU,1718237940
317,uliastay,47.7417,96.8444,13.75,51,85,1.18,MN,1718237941
318,qarqaraly,49.4058,75.4742,10.28,94,99,2.32,KZ,1718237942
319,koulikoro,14.0,-7.75,29.86,39,95,3.21,ML,1718237943
320,bam,29.106,58.357,31.03,14,0,4.28,IR,1718237944
321,susuman,62.7833,148.1667,15.55,32,59,0.89,RU,1718237946
322,wainwright,52.839,-110.8572,9.58,94,100,6.43,CA,1718237710
323,acarau,-2.8856,-40.12,25.38,85,68,5.37,BR,1718237948
324,selibaby,15.159,-12.1829,36.83,19,100,5.1,MR,1718237949
325,mandalgovi,45.7625,106.2708,13.07,46,9,8.64,MN,1718237950
326,puerto aysen,-45.4,-72.7,8.23,100,100,0.24,CL,1718237778
327,dhamar,14.5427,44.4051,17.68,37,6,1.7,YE,1718237952
328,lompoc,34.6391,-120.4579,25.94,85,100,4.12,US,1718237953
329,uturoa,-16.7333,-151.4333,25.81,66,21,7.74,PF,1718237954
330,niquelandia,-14.4739,-48.4597,20.37,45,0,1.7,BR,1718237887
331,ajaokuta,7.5623,6.655,24.9,90,95,1.55,NG,1718237957
332,bredasdorp,-34.5322,20.0403,11.79,89,0,1.25,ZA,1718237958
333,holmsund,63.706,20.3641,4.97,100,16,0.51,SE,1718237959
334,palapye,-22.546,27.1251,9.9,55,1,0.24,BW,1718237960
335,donetsk,48.0,37.8,17.74,83,3,3.37,UA,1718237961
336,armacao de buzios,-22.7469,-41.8817,22.03,83,0,7.92,BR,1718237962
337,gao,16.6362,1.637,32.67,30,60,2.62,ML,1718237963
338,turkmenbasy,40.0222,52.9552,22.43,64,0,2.06,TM,1718237712
339,boa esperanca,-21.09,-45.5658,16.19,49,0,0.97,BR,1718237966
340,impfondo,1.6381,18.0667,22.56,81,62,1.24,CG,1718237967
341,barra de santo antonio,-9.4047,-35.5072,24.6,83,37,5.93,BR,1718237968
342,masuguru,-11.3667,38.4167,17.26,68,18,1.58,TZ,1718237969
343,horodyshche,49.2849,31.4451,12.87,92,51,4.51,UA,1718237970
344,klyuchi,52.2667,79.1667,15.74,80,84,0.51,RU,1718237971
345,lichinga,-13.3128,35.2406,11.05,93,0,4.63,MZ,1718237972
346,kuanda,56.3161,116.0806,16.62,67,90,1.11,RU,1718237974
347,karratha,-20.7377,116.8463,21.4,56,6,2.17,AU,1718237975
348,dwarka,22.2394,68.9678,29.1,78,48,6.79,IN,1718237976
349,puerto maldonado,-12.6,-69.1833,27.03,68,98,0.57,PE,1718237977
350,pacific grove,36.6177,-121.9166,17.9,85,100,3.13,US,1718237978
351,bahir dar,11.5936,37.3908,18.12,82,35,1.44,ET,1718237979
352,kaiapoi,-43.3783,172.6401,11.71,72,100,4.12,NZ,1718237980
353,beipiao,41.7919,120.7792,24.45,61,100,4.73,CN,1718237981
354,port hedland,-20.3167,118.5667,20.03,42,1,1.54,AU,1718237712
355,xining,36.6167,101.7667,13.15,77,100,1.23,CN,1718237984
356,ponta delgada,37.7333,-25.6667,19.4,77,20,1.03,PT,1718237986
357,fortaleza,-3.7227,-38.5247,26.4,85,99,5.38,BR,1718237502
358,balykchy,42.4557,76.1861,12.12,75,89,0.97,KG,1718237988
359,soledade,-28.8183,-52.5103,15.88,88,2,2.2,BR,1718237921
360,porto novo,6.4965,2.6036,27.9,85,48,3.01,BJ,1718237990
361,plastun,44.7561,136.2939,13.19,74,99,2.06,RU,1718237991
362,iwaki,37.05,140.8833,26.54,72,92,3.72,JP,1718237993
363,las tablas,7.7667,-80.2833,26.77,86,100,3.28,PA,1718237994
364,banda aceh,5.5577,95.3222,27.25,79,92,4.73,ID,1718237995
365,osterholz-scharmbeck,53.2333,8.8,8.81,92,75,3.0,DE,1718237996
366,ambagarh chauki,20.7833,80.7167,28.43,60,94,6.4,IN,1718237997
367,ilhabela,-23.7781,-45.3581,20.27,83,0,1.93,BR,1718237923
368,queenstown,-31.8976,26.8753,6.21,65,0,0.49,ZA,1718237999
369,bansang,13.4333,-14.65,30.07,46,95,4.93,GM,1718238001
370,happy valley-goose bay,53.3168,-60.3315,20.17,45,40,5.14,CA,1718237711
371,bodden town,19.2833,-81.25,30.0,85,20,5.36,KY,1718238004
372,lincoln city,44.9582,-124.0179,21.44,74,0,10.28,US,1718237757
373,freetown,8.484,-13.2299,26.12,86,99,2.47,SL,1718238008
374,fenyi,27.8112,114.6681,25.79,94,28,0.74,CN,1718238009
375,mocimboa,-11.3167,40.35,21.16,80,39,5.92,MZ,1718238010
376,al mijlad,11.0333,27.7333,29.17,57,100,6.11,SD,1718238011
377,waingapu,-9.6567,120.2641,25.43,72,51,4.92,ID,1718238012
378,santiago de cao,-7.9589,-79.2392,18.07,88,75,3.6,PE,1718238013
379,general salgado,-20.6483,-50.3606,20.36,36,0,2.68,BR,1718238015
380,jieshi,22.8134,115.8257,27.97,86,97,5.37,CN,1718238016
381,ciudad melchor muzquiz,27.8833,-101.5167,40.2,26,1,3.22,MX,1718238017
382,kittila,67.6647,24.8936,8.08,93,0,1.54,FI,1718238018
383,kapuskasing,49.4169,-82.4331,23.05,43,20,8.75,CA,1718238019
384,yorosso,12.3536,-4.7761,29.16,54,100,1.84,ML,1718238020
385,belmonte,-15.8631,-38.8828,23.15,86,30,3.91,BR,1718238021
386,hotarele,44.1725,26.3703,20.14,89,41,1.66,RO,1718238023
387,ivanava,52.1451,25.5365,12.81,71,90,2.95,BY,1718238024
388,kenora,49.8167,-94.4337,21.54,49,40,4.12,CA,1718238025
389,castillos,-34.1667,-53.8333,19.86,93,100,2.54,UY,1718238026
390,la ronge,55.1001,-105.2842,18.14,48,75,2.57,CA,1718238027
391,sur,22.5667,59.5289,32.84,48,21,5.29,OM,1718238030
392,villamontes,-21.25,-63.5,23.42,59,71,4.48,BO,1718238033
393,carnarvon,-24.8667,113.6333,18.33,72,0,6.54,AU,1718238034
394,vadso,70.0744,29.7487,4.49,87,100,4.12,NO,1718238035
395,fraserburgh,57.6874,-2.0184,8.02,84,94,1.37,GB,1718238036
396,cabo san lucas,22.8909,-109.9124,28.67,58,0,3.13,MX,1718238038
397,mil'kovo,55.6078,37.7956,19.22,97,99,3.04,RU,1718238039
398,sorong,-0.8833,131.25,25.55,90,100,2.96,ID,1718238040
399,tecumseh,42.0039,-83.9449,28.82,49,0,2.06,US,1718237871
400,punta cardon,11.6581,-70.215,27.46,84,85,14.78,VE,1718238042
401,mali,12.079,-12.2982,16.08,88,100,3.68,GN,1718238043
402,pemangkat,1.1667,108.9667,26.92,86,100,2.59,ID,1718238044
403,eaglehawk,-36.7333,144.25,9.76,63,100,1.44,AU,1718238047
404,coahuayana de hidalgo,18.7,-103.6583,28.08,70,100,2.42,MX,1718238048
405,ellsworth,44.5434,-68.4195,17.05,90,75,3.09,US,1718237753
406,berdigestyakh,62.0989,126.6992,19.58,39,7,3.19,RU,1718238050
407,quinte west,44.1834,-77.5662,20.22,55,20,2.57,CA,1718238037
408,adigrat,14.277,39.462,16.67,60,0,1.25,ET,1718238053
409,nemuro,43.3236,145.575,13.03,97,97,2.37,JP,1718238054
410,taroa,8.7058,171.2275,27.93,81,91,8.86,MH,1718238055
411,vicuna,-30.0319,-70.7081,11.85,76,100,0.45,CL,1718238052
412,mawu,29.5923,107.3139,22.41,84,100,0.41,CN,1718238057
413,rumbek,6.802,29.6912,22.59,94,88,1.76,SS,1718238058
414,calp,38.6447,0.0445,18.08,87,54,0.56,ES,1718238059
415,karoi,-16.8099,29.6925,9.09,70,0,1.12,ZW,1718238060
416,mariehamn,60.0973,19.9348,11.57,100,20,2.57,AX,1718238062
417,simga,21.6333,81.7,31.77,52,43,5.35,IN,1718238063
418,zaragoza,41.6561,-0.8773,16.12,53,20,6.17,ES,1718238065
419,kimbe,-5.5502,150.1429,30.05,69,92,0.73,PG,1718238066
420,lata,40.1629,-8.3327,13.93,96,56,0.97,PT,1718238067
421,hastings,50.8552,0.5729,11.55,75,14,3.35,GB,1718238068
422,bolobo,-2.1667,16.2333,22.47,56,11,0.13,CD,1718238070
423,axim,4.8699,-2.2405,25.93,82,80,4.27,GH,1718238071
424,ferkessedougou,9.6,-5.2,26.06,70,77,2.25,CI,1718238072
425,beloyarskiy,63.7119,66.6722,15.0,94,62,3.58,RU,1718238073
426,jinshi,29.6049,111.8701,27.39,84,61,2.15,CN,1718238074
427,bada,51.392,109.8717,10.11,93,100,1.1,RU,1718238075
428,northam,51.0333,-4.2167,9.78,85,54,3.85,GB,1718238076
429,laguna,38.421,-121.4238,38.58,39,0,5.14,US,1718238052
430,bannalec,47.9323,-3.6976,8.95,90,59,1.04,FR,1718238079
431,flying fish cove,-10.4217,105.6791,25.82,88,75,4.63,CX,1718238080
432,howrah,22.5892,88.3103,29.0,89,40,4.12,IN,1718238081
433,badr hunayn,23.7829,38.7905,31.12,26,8,0.44,SA,1718238082
434,tshabong,-26.05,22.45,12.3,34,1,4.97,BW,1718238083
435,gaigeturi,33.4644,126.3183,23.03,78,0,1.54,KR,1718238085
436,pawni,20.7833,79.6333,30.65,61,23,4.4,IN,1718238086
437,cidreira,-30.1811,-50.2056,18.46,90,9,2.98,BR,1718238087
438,lerwick,60.1545,-1.1494,9.0,88,99,2.5,GB,1718238088
439,la'ie,21.6477,-157.9253,28.98,81,11,2.68,US,1718238089
440,cockburn town,21.4612,-71.1419,27.6,83,94,9.34,TC,1718237947
441,puerto baquerizo moreno,-0.9,-89.6,21.11,86,91,4.47,EC,1718238008
442,tuburan,6.6439,122.2736,27.05,81,98,2.1,PH,1718238092
443,thanh hoa,19.8,105.7667,29.01,74,100,1.61,VN,1718238094
444,tura,25.5198,90.2201,24.72,95,100,3.28,IN,1718238095
445,nehoiu,45.4167,26.3,18.93,92,87,0.26,RO,1718238096
446,steinheim am albuch,48.6909,10.0638,10.65,78,96,0.45,DE,1718238097
447,aral,40.5156,81.2636,23.56,38,17,4.81,CN,1718238098
448,santa eularia des riu,38.9846,1.5341,18.5,90,0,0.51,ES,1718238099
449,usinsk,65.9939,57.5281,17.26,78,72,4.47,RU,1718238100
450,assare,-6.8744,-39.875,24.76,61,95,3.01,BR,1718238101
451,zakynthos,37.7914,20.8953,25.91,71,75,2.45,GR,1718238102
452,chilliwack,49.1747,-121.9443,20.55,50,47,3.09,CA,1718238104
453,kudahuvadhoo,2.6708,72.8944,28.4,76,87,4.15,MV,1718238105
454,la manga del mar menor,37.6413,-0.7165,18.01,95,0,2.06,ES,1718238106
455,yamba,-5.9,22.3,21.7,56,10,1.4,CD,1718238107
456,mogoytuy,51.2833,114.9167,12.25,81,100,6.75,RU,1718238108
457,safi,32.1667,-8.8333,16.82,81,98,6.68,MA,1718238109
458,constantia,44.1833,28.65,19.38,80,83,2.25,RO,1718238110
459,alterosa,-21.2492,-46.1431,15.42,52,0,0.67,BR,1718238111
460,bafia,4.75,11.2333,21.05,93,42,0.63,CM,1718238113
461,nakambala,-15.8324,27.7799,11.1,63,0,2.16,ZM,1718238114
462,kaitong,44.8135,123.15,23.7,63,100,4.34,CN,1718238115
463,wankyi,7.7392,-2.1046,22.81,95,70,3.03,GH,1718238116
464,jinka,5.65,36.65,17.5,73,97,1.79,ET,1718238117
465,puerto cabezas,14.0351,-83.3888,28.63,77,70,2.73,NI,1718238118
466,khandyga,62.6667,135.6,20.8,44,82,1.71,RU,1718238120
467,pagar alam,-4.0167,103.2667,21.16,93,88,1.11,ID,1718238122
468,ataq,14.5377,46.8319,25.72,46,8,3.54,YE,1718238123
469,agogo,6.8,-1.0819,22.21,94,99,3.12,GH,1718238124
470,parabel',58.6978,81.4825,17.17,78,21,2.68,RU,1718238126
471,port isabel,26.0734,-97.2086,33.05,70,0,5.66,US,1718238127
472,padang,-0.9492,100.3543,25.03,86,99,1.91,ID,1718238129
473,sungailiat,-1.85,106.1333,26.16,87,55,1.48,ID,1718238131
474,ta`u,-14.2336,-169.5144,27.64,83,99,7.78,AS,1718238132
475,esmeralda,21.8525,-78.1169,28.79,70,100,1.49,CU,1718238133
476,maintirano,-18.0667,44.0167,23.78,71,5,4.67,MG,1718238134
477,dem'yanovo,60.3511,47.0842,16.96,98,65,2.36,RU,1718238136
478,lamu,-2.2717,40.902,25.73,72,33,7.72,KE,1718238138
479,san sebastian de la gomera,28.0916,-17.1133,21.88,68,0,2.57,ES,1718238139
480,fuyu,45.1833,124.8167,22.35,68,100,4.51,CN,1718238141
481,hirara,24.8,125.2833,29.92,94,75,8.23,JP,1718238143
482,dunay,42.8803,132.3375,17.07,94,100,3.99,RU,1718238144
483,basco,20.4487,121.9702,29.15,85,87,8.07,PH,1718238145
484,grand blanc,42.9275,-83.63,27.3,54,20,3.09,US,1718238146
485,jean-rabel,19.8533,-73.1917,28.74,76,49,4.8,HT,1718238147
486,rabaul,-4.1967,152.1721,28.18,75,95,0.57,PG,1718238149
487,canico,32.6333,-16.85,19.45,81,75,5.66,PT,1718238150
488,nagqu,31.5,92.0,5.8,76,46,2.39,CN,1718238151
489,langtoucun,40.0261,124.3286,22.28,68,67,3.53,CN,1718238152
490,sirte,31.2089,16.5887,31.53,29,0,3.21,LY,1718238153
491,quezon,7.7303,125.0989,25.12,89,99,0.57,PH,1718238154
492,gizo,-8.103,156.8419,28.06,80,36,3.92,SB,1718238155
493,kristiansund,63.1115,7.732,8.03,87,100,0.0,NO,1718238157
494,beira,-19.8436,34.8389,16.05,88,0,2.57,MZ,1718238159
495,turuntayevo,52.2,107.6167,14.05,83,68,0.73,RU,1718238160
496,newman,37.3138,-121.0208,37.13,33,0,2.24,US,1718238161
497,jerada,34.31,-2.16,17.54,62,2,2.21,MA,1718238162
498,novyy urgal,51.0736,132.5642,16.59,53,14,0.9,RU,1718238163
499,safaga,26.7292,33.9365,30.74,33,0,4.76,EG,1718238164
500,hengchun,22.0042,120.7439,28.4,84,100,6.9,TW,1718238165
501,mugia,43.1041,-9.2179,12.73,87,89,5.13,ES,1718238168
502,isabela,6.7085,121.9711,27.03,81,90,1.68,PH,1718238169
503,urucui,-7.2294,-44.5561,29.01,38,46,1.99,BR,1718238170
504,midvagur,62.0511,-7.1939,8.46,93,88,2.06,FO,1718238171
505,santa ines,-3.6667,-45.38,24.59,77,92,0.5,BR,1718238172
506,seosan,36.7817,126.4522,24.64,49,73,1.47,KR,1718238173
507,prince rupert,54.3161,-130.3201,13.83,66,0,3.6,CA,1718238174
508,santa terezinha,-29.9002,-50.0904,18.88,89,9,2.64,BR,1718238176
509,yurgamysh,55.3714,64.4656,20.47,94,84,2.69,RU,1718238177
510,papao,-17.75,-149.55,27.82,73,24,7.76,PF,1718238180
511,severnoye,56.3491,78.3619,14.99,87,22,2.68,RU,1718238181
512,kujama,10.4542,7.6368,22.16,83,68,1.16,NG,1718238182
513,nadym,65.5333,72.5167,14.98,81,89,1.88,RU,1718238183
514,muisne,0.6,-80.0333,24.54,86,89,2.88,EC,1718238184
515,chorfa,36.3651,4.3264,18.95,82,0,1.54,DZ,1718238186
516,gushu,31.5598,118.4829,27.99,67,73,2.08,CN,1718238187
517,nueve de julio,-35.4444,-60.8831,17.76,99,100,0.89,AR,1718237932
518,okhotsk,59.3833,143.3,9.69,77,26,2.67,RU,1718238189
519,kavaratti,10.5669,72.642,28.31,82,100,5.68,IN,1718238190
520,korhogo,9.45,-5.6333,26.08,67,92,2.26,CI,1718238191
521,fort mcmurray,56.7268,-111.381,16.77,72,100,4.12,CA,1718238192
522,recani,31.2846,-4.2688,27.34,30,89,9.74,MA,1718238193
523,ladario,-19.0047,-57.6017,24.31,36,27,1.13,BR,1718238194
524,tual,-5.6667,132.75,26.53,76,100,8.44,ID,1718238196
525,kyzylorda,44.8528,65.5092,17.01,42,0,4.0,KZ,1718238197
526,shimokizukuri,40.8061,140.3861,28.07,58,43,1.41,JP,1718238198
527,timimoun,29.2639,0.231,30.21,8,0,2.57,DZ,1718238200
528,leer,53.2316,7.461,8.99,93,96,4.36,DE,1718238202
529,kandla,23.0333,70.2167,29.11,72,0,7.3,IN,1718238203
530,sant'ambrogio di valpollicella,45.5209,10.8362,16.62,89,40,1.03,IT,1718238204
531,chatillon-sur-seine,47.8585,4.5738,7.14,89,9,0.49,FR,1718238205
532,puerto deseado,-47.7503,-65.8938,6.54,77,49,4.25,AR,1718238079
533,talcahuano,-36.7167,-73.1167,12.82,100,100,8.23,CL,1718238164
534,whakatane,-37.9585,176.9854,14.17,81,100,1.34,NZ,1718238209
535,kamaishi,39.2667,141.8833,24.16,67,9,3.13,JP,1718238210
536,borogontsy,62.6683,131.1683,19.42,56,11,1.83,RU,1718238211
537,huarmey,-10.0681,-78.1522,18.31,86,100,3.4,PE,1718238113
538,ternate,0.8,127.4,27.4,78,100,2.52,ID,1718238213
539,kotlas,61.2611,46.6556,18.36,91,84,2.24,RU,1718238215
540,tucurui,-3.7661,-49.6725,27.24,55,66,1.55,BR,1718238081
541,cole harbour,44.6724,-63.4751,17.66,83,47,3.09,CA,1718238217
542,mata-utu,-13.2816,-176.1745,27.68,71,17,1.1,WF,1718238218
543,kirensk,57.7853,108.1119,16.09,77,67,0.89,RU,1718238222
544,kerikeri,-35.2268,173.9474,17.73,85,100,3.13,NZ,1718238223
545,arteche,12.2645,125.4048,29.85,72,73,2.34,PH,1718238224
546,rio preto da eva,-2.6994,-59.6997,24.98,92,100,0.77,BR,1718238225
547,changji,44.0167,87.3167,24.44,43,0,4.0,CN,1718238226
548,katpur,21.05,71.7833,29.16,73,20,4.92,IN,1718238228
549,kuruman,-27.4524,23.4325,9.46,41,0,2.42,ZA,1718238229
550,santa elena de uairen,4.6167,-61.1333,20.18,93,97,1.31,VE,1718238130
551,eydhafushi,5.1033,73.0708,28.7,76,100,5.94,MV,1718238231
552,oregon,44.0001,-120.5014,21.99,20,1,5.82,US,1718238232
553,camalu,30.85,-116.0667,19.68,64,2,4.39,MX,1718238233
554,minas,-34.3759,-55.2377,20.07,88,100,3.56,UY,1718238234
555,helena valley west central,46.6629,-112.0604,26.49,18,0,9.77,US,1718238235
556,conception bay south,47.4999,-52.9981,13.84,88,100,6.3,CA,1718238236
557,rongelap,11.1635,166.8941,28.05,82,77,10.11,MH,1718238238
558,mossel bay,-34.1831,22.146,10.96,80,0,1.74,ZA,1718238239
559,sola,-13.8833,167.55,30.37,79,75,0.0,VU,1718238240
560,natal,-5.795,-35.2094,25.36,88,20,2.57,BR,1718237868
561,raduzhnyy,62.0961,77.475,17.09,62,86,2.8,RU,1718238069
562,mao,39.8885,4.2658,18.31,63,0,2.06,ES,1718238243
563,santo tome,-31.6627,-60.7653,24.47,78,78,3.58,AR,1718238048
564,san antonio,29.4241,-98.4936,32.49,64,0,4.12,US,1718237982
565,pacasmayo,-7.4006,-79.5714,18.04,84,77,4.81,PE,1718238223
566,fisterra,42.9049,-9.2629,12.64,85,91,5.46,ES,1718238247
567,pyapon,16.2833,95.6833,25.75,92,100,3.09,MM,1718238249
568,inhambane,-23.865,35.3833,18.85,71,1,2.37,MZ,1718238250
569,ola,59.5833,151.2833,16.19,71,76,1.98,RU,1718238251
570,kushikino,31.7167,130.2667,26.7,75,31,1.11,JP,1718238252
